[
  {
    "season": 1,
    "episode": 1,
    "title": "江東区門前仲町のやきとりと焼きめし",
    "restaurant": "庄助",
    "matome": "http://blog.livedoor.jp/kuimonnew/archives/1879392.html",
    "access": "門前仲町駅　徒歩2分",
    "phoneNumber": "03-3643-9648",
    "address": "東京都江東区富岡1-2-8",
    "location": {
      "lat": 35.6710663,
      "lng": 139.796387
    }
  },
  {
    "season": 1,
    "episode": 2,
    "title": "豊島区駒込の煮魚定食",
    "restaurant": "和食亭",
    "matome": "http://blog.livedoor.jp/kuimonnew/archives/2035314.html",
    "access": "駒込駅東口　徒歩3分",
    "phoneNumber": "",
    "address": "東京都北区中里1-8-7",
    "location": {
      "lat": 35.7370453,
      "lng": 139.749954
    }
  },
  {
    "season": 1,
    "episode": 3,
    "title": "豊島区池袋の汁なし担々麺",
    "restaurant": "中国家庭料理 楊 2号店",
    "matome": "http://blog.livedoor.jp/kuimonnew/archives/19061911.html",
    "access": "池袋駅　徒歩3分",
    "phoneNumber": "03-5391-6803",
    "address": "東京都豊島区西池袋3-25-5",
    "location": {
      "lat": 35.7300568,
      "lng": 139.70726
    }
  },
  {
    "season": 1,
    "episode": 4,
    "title": "千葉県浦安市の静岡おでん",
    "restaurant": "ロコディッシュ【閉店】",
    "matome": "http://blog.livedoor.jp/kuimonnew/archives/2472878.html",
    "access": "",
    "phoneNumber": "",
    "address": "",
    "closed": "true",
    "location": {
      "lat": 0.0,
      "lng": 0.0
    }
  },
  {
    "season": 1,
    "episode": 5,
    "title": "杉並区永福の親子丼と焼うどん",
    "restaurant": "つり堀 武蔵野園",
    "matome": "http://blog.livedoor.jp/kuimonnew/archives/2673235.html",
    "access": "永福町駅⇒京王バス新高円寺行5分⇒和田堀公園入口より徒歩2分",
    "phoneNumber": "03-3312-2723",
    "address": "東京都杉並区大宮2-22-3",
    "location": {
      "lat": 35.6858749,
      "lng": 139.639664
    }
  },
  {
    "season": 1,
    "episode": 6,
    "title": "中野区鷺ノ宮のロースにんにく焼き",
    "restaurant": "みやこや",
    "matome": "http://blog.livedoor.jp/kuimonnew/archives/2843569.html",
    "access": "鷺宮駅　徒歩5分",
    "phoneNumber": "03-3336-7037",
    "address": "東京都中野区鷺宮3-21-6",
    "location": {
      "lat": 35.72363,
      "lng": 139.6388
    }
  },
  {
    "season": 1,
    "episode": 7,
    "title": "武蔵野市吉祥寺 喫茶店のナポリタン",
    "restaurant": "お酒と食事の店 カヤシマ",
    "matome": "http://blog.livedoor.jp/kuimonnew/archives/3076961.html",
    "access": "吉祥寺駅　徒歩5分",
    "phoneNumber": "0422-21-6461",
    "address": "東京都武蔵野市吉祥寺本町1-10-9",
    "location": {
      "lat": 35.7060127,
      "lng": 139.578949
    }
  },
  {
    "season": 1,
    "episode": 8,
    "title": "神奈川県川崎市八丁畷の一人焼肉",
    "restaurant": "焼肉ジンギスカン つるや",
    "matome": "http://blog.livedoor.jp/kuimonnew/archives/3261298.html",
    "access": "八丁畷駅　徒歩3分",
    "phoneNumber": "044-211-0697",
    "address": "神奈川県川崎市川崎区日進町19-7",
    "location": {
      "lat": 35.5249138,
      "lng": 139.694824
    }
  },
  {
    "season": 1,
    "episode": 9,
    "title": "世田谷区下北沢の広島風お好み焼",
    "restaurant": "広島のお好み焼 鉄板焼 HIROKI",
    "matome": "http://blog.livedoor.jp/kuimonnew/archives/3494294.html",
    "access": "下北沢駅 南口 徒歩3分",
    "phoneNumber": "03-3412-3908",
    "address": "東京都世田谷区北沢2-14-14",
    "location": {
      "lat": 35.6600456,
      "lng": 139.667786
    }
  },
  {
    "season": 1,
    "episode": 10,
    "title": "豊島区東長崎のしょうが焼目玉丼",
    "restaurant": "せきざわ食堂【閉店】",
    "matome": "http://blog.livedoor.jp/kuimonnew/archives/3756946.html",
    "access": "",
    "phoneNumber": "",
    "address": "",
    "closed": "true",
    "location": {
      "lat": 0.0,
      "lng": 0.0
    }
  },
  {
    "season": 1,
    "episode": 11,
    "title": "文京区根津 飲み屋さんの特辛カレー",
    "restaurant": "すみれ",
    "matome": "http://blog.livedoor.jp/kuimonnew/archives/4076644.html",
    "access": "根津駅　徒歩5分",
    "phoneNumber": "03-3821-8941",
    "address": "東京都文京区根津2-24-8",
    "location": {
      "lat": 35.7198563,
      "lng": 139.765
    }
  },
  {
    "season": 1,
    "episode": 12,
    "title": "目黒区中目黒 ソーキそばとアグー豚の天然塩焼き",
    "restaurant": "草花木果 沖縄料理と島豚アグー",
    "matome": "http://blog.livedoor.jp/kuimonnew/archives/4439873.html",
    "access": "中目黒駅　徒歩5分",
    "phoneNumber": "03-5722-1055",
    "address": "東京都目黒区上目黒2-7-11",
    "location": {
      "lat": 35.6428223,
      "lng": 139.699249
    }
  },
  {
    "season": 2,
    "episode": 1,
    "title": "神奈川県川崎市新丸子のネギ肉イタメ",
    "restaurant": "三ちゃん食堂",
    "matome": "http://blog.livedoor.jp/kuimonnew/archives/18794485.html",
    "access": "新丸子駅　徒歩3分",
    "phoneNumber": "044-722-2863",
    "address": "神奈川県川崎市中原区新丸子町733",
    "location": {
      "lat": 35.58094,
      "lng": 139.6612
    }
  },
  {
    "season": 2,
    "episode": 2,
    "title": "中央区日本橋人形町の黒天丼",
    "restaurant": "天ぷら 中山",
    "matome": "http://blog.livedoor.jp/kuimonnew/archives/19061911.html",
    "access": "人形町駅　徒歩5分",
    "phoneNumber": "03-3661-4538",
    "address": "東京都中央区日本橋人形町1-10-8",
    "location": {
      "lat": 35.6841049,
      "lng": 139.782669
    }
  },
  {
    "season": 2,
    "episode": 3,
    "title": "中野区沼袋のわさびカルビと卵かけご飯",
    "restaurant": "平和苑",
    "matome": "http://blog.livedoor.jp/kuimonnew/archives/19311413.html",
    "access": "西武新宿線沼袋駅 徒歩7分",
    "phoneNumber": "03-3388-9762",
    "address": "東京都中野区沼袋3-23-2",
    "location": {
      "lat": 35.718586,
      "lng": 139.66008
    }
  },
  {
    "season": 2,
    "episode": 4,
    "title": "群馬県邑楽郡大泉町のブラジル料理",
    "restaurant": "ブラジル",
    "matome": "http://blog.livedoor.jp/kuimonnew/archives/19602399.html",
    "access": "西小泉駅　徒歩5分",
    "phoneNumber": "0276-62-0994",
    "address": "群馬県邑楽郡大泉町西小泉5-5-3",
    "location": {
      "lat": 36.2605629,
      "lng": 139.40715
    }
  },
  {
    "season": 2,
    "episode": 5,
    "title": "神奈川県横浜市白楽の豚肉と玉ねぎのニンニク焼き",
    "restaurant": "キッチン友",
    "matome": "http://blog.livedoor.jp/kuimonnew/archives/19872547.html",
    "access": "白楽駅　徒歩5分",
    "phoneNumber": "045-431-1152",
    "address": "神奈川県横浜市神奈川区六角橋1-7-21",
    "location": {
      "lat": 35.4890022,
      "lng": 139.6267
    }
  },
  {
    "season": 2,
    "episode": 6,
    "title": "江戸川区京成小岩の激辛四川料理",
    "restaurant": "四川家庭料理 珍々",
    "matome": "http://blog.livedoor.jp/kuimonnew/archives/20156630.html",
    "access": "京成小岩駅　徒歩10分",
    "phoneNumber": "03-3671-8777",
    "address": "東京都江戸川区西小岩4-9-20",
    "location": {
      "lat": 35.7381973,
      "lng": 139.880249
    }
  },
  {
    "season": 2,
    "episode": 7,
    "title": "千葉県旭市飯岡のサンマのなめろうと蛤の酒蒸し",
    "restaurant": "つちや食堂",
    "matome": "http://blog.livedoor.jp/kuimonnew/archives/20410364.html",
    "access": "",
    "phoneNumber": "0479-57-5781",
    "address": "千葉県旭市三川5717-102",
    "location": {
      "lat": 35.70256,
      "lng": 140.706314
    }
  },
  {
    "season": 2,
    "episode": 8,
    "title": "墨田区両国の一人ちゃんこ鍋",
    "restaurant": "割烹ちゃんこ大内",
    "matome": "http://blog.livedoor.jp/kuimonnew/archives/20674697.html",
    "access": "両国駅　徒歩5分",
    "phoneNumber": "03-3635-5349",
    "address": "東京都墨田区両国2-9-6",
    "location": {
      "lat": 35.6935959,
      "lng": 139.793091
    }
  },
  {
    "season": 2,
    "episode": 9,
    "title": "江東区砂町銀座を経て事務所飯",
    "restaurant": "砂町銀座商店街",
    "matome": "http://blog.livedoor.jp/kuimonnew/archives/20933099.html",
    "access": "亀戸駅　錦糸町駅からバス10分",
    "phoneNumber": "",
    "address": "東京都江東区北砂4-18-14",
    "location": {
      "lat": 35.67958,
      "lng": 139.831192
    }
  },
  {
    "season": 2,
    "episode": 10,
    "title": "北区十条の鯖のくんせいと甘い玉子焼",
    "restaurant": "田や",
    "matome": "http://blog.livedoor.jp/kuimonnew/archives/21183667.html",
    "access": "十条駅　徒歩5分",
    "phoneNumber": "03-3909-1881",
    "address": "東京都北区中十条2-22-2",
    "location": {
      "lat": 35.76174,
      "lng": 139.722763
    }
  },
  {
    "season": 2,
    "episode": 11,
    "title": "足立区北千住のタイカレーと鶏の汁無し麺",
    "restaurant": "タイ料理 ライカノ",
    "matome": "http://blog.livedoor.jp/kuimonnew/archives/21412805.html",
    "access": "北千住駅　徒歩3分",
    "phoneNumber": "03-3881-7400",
    "address": "東京都足立区千住2-62 ラ・フェットビル1F",
    "location": {
      "lat": 35.7492523,
      "lng": 139.803864
    }
  },
  {
    "season": 2,
    "episode": 12,
    "title": "東京都三鷹市のお母さんのコロッケとぶり大根",
    "restaurant": "お食事 樹",
    "matome": "http://blog.livedoor.jp/kuimonnew/archives/21659413.html",
    "access": "三鷹駅　徒歩約5分",
    "phoneNumber": "0422-48-1338",
    "address": "東京都三鷹市上連雀2-3-7",
    "location": {
      "lat": 35.7001076,
      "lng": 139.558853
    }
  },
  {
    "season": 3,
    "episode": 1,
    "title": "北区赤羽のほろほろ鳥とうな丼",
    "restaurant": "川栄",
    "matome": "http://blog.livedoor.jp/kuimonnew/archives/29393963.html",
    "access": "赤羽駅　徒歩5分",
    "phoneNumber": "03-3901-3729",
    "address": "東京都北区赤羽1-19-16",
    "location": {
      "lat": 35.7801,
      "lng": 139.720123
    }
  },
  {
    "season": 3,
    "episode": 2,
    "title": "神奈川県横浜市日ノ出町のチートのしょうが炒めとパタン",
    "restaurant": "第一亭",
    "matome": "http://blog.livedoor.jp/kuimonnew/archives/29646586.html",
    "access": "日ノ出町駅　徒歩3分",
    "phoneNumber": "045-231-6137",
    "address": "神奈川県横浜市中区日ノ出町1-20",
    "location": {
      "lat": 35.4455032,
      "lng": 139.628
    }
  },
  {
    "season": 3,
    "episode": 3,
    "title": "静岡県賀茂郡河津町の生ワサビ付わさび丼",
    "restaurant": "わさび園かどや",
    "matome": "http://blog.livedoor.jp/kuimonnew/archives/29910987.html",
    "access": "河津駅　バスで25分",
    "phoneNumber": "0558-35-7290",
    "address": "静岡県賀茂郡河津町梨本371-1",
    "location": {
      "lat": 34.7940636,
      "lng": 138.935287
    }
  },
  {
    "season": 3,
    "episode": 4,
    "title": "文京区江戸川橋の魚屋さんの銀ダラ西京焼き",
    "restaurant": "魚谷",
    "matome": "http://blog.livedoor.jp/kuimonnew/archives/30186006.html",
    "access": "江戸川橋駅　徒歩5分",
    "phoneNumber": "03-3268-8129",
    "address": "東京都文京区関口1-2-8",
    "location": {
      "lat": 35.7081146,
      "lng": 139.733459
    }
  },
  {
    "season": 3,
    "episode": 5,
    "title": "中野区東中野の羊の鉄鍋とラグマン",
    "restaurant": "キャラヴァンサライ包",
    "matome": "http://blog.livedoor.jp/kuimonnew/archives/30461758.html",
    "access": "東中野駅　徒歩3分",
    "phoneNumber": "03-3371-3750",
    "address": "東京都中野区東中野2-25-6",
    "location": {
      "lat": 35.7057953,
      "lng": 139.682327
    }
  },
  {
    "season": 3,
    "episode": 6,
    "title": "東京都板橋区板橋の焼肉ホルモン",
    "restaurant": "山源",
    "matome": "http://blog.livedoor.jp/kuimonnew/archives/30736595.html",
    "access": "板橋駅　徒歩5分",
    "phoneNumber": "03-3963-4656",
    "address": "東京都板橋区板橋1-22-10",
    "location": {
      "lat": 35.7472725,
      "lng": 139.718842
    }
  },
  {
    "season": 3,
    "episode": 7,
    "title": "目黒区駒場東大前のマッシュルームガーリックとカキグラタン",
    "restaurant": "ボラーチョ",
    "matome": "http://blog.livedoor.jp/kuimonnew/archives/31025532.html",
    "access": "神泉駅　徒歩10分",
    "phoneNumber": "03-3465-4452",
    "address": "東京都目黒区大橋2-6-18",
    "location": {
      "lat": 35.6552658,
      "lng": 139.688934
    }
  },
  {
    "season": 3,
    "episode": 8,
    "title": "台東区鶯谷のアボカド鶏メンチと鳥鍋めし",
    "restaurant": "鳥椿 鶯谷朝顔通り店",
    "matome": "http://blog.livedoor.jp/kuimonnew/archives/31304091.html",
    "access": "鶯谷駅　徒歩5分",
    "phoneNumber": "03-5808-9188",
    "address": "東京都台東区根岸1-1-15 渡辺ビル1F",
    "location": {
      "lat": 35.7206573,
      "lng": 139.780518
    }
  },
  {
    "season": 3,
    "episode": 9,
    "title": "練馬区小竹向原のローストポークサンドイッチとサルシッチャ",
    "restaurant": "まちのパーラー",
    "matome": "http://blog.livedoor.jp/kuimonnew/archives/31598412.html",
    "access": "小竹向原駅　徒歩10分",
    "phoneNumber": "03-6312-1333",
    "address": "東京都練馬区小竹町2-40-4",
    "location": {
      "lat": 35.74353,
      "lng": 139.675354
    }
  },
  {
    "season": 3,
    "episode": 10,
    "title": "荒川区西尾久の炎の酒鍋と麦とろ飯",
    "restaurant": "どん平",
    "matome": "http://blog.livedoor.jp/kuimonnew/archives/31980252.html",
    "access": "宮ノ前駅　徒歩5分",
    "phoneNumber": "03-3893-8982",
    "address": "東京都荒川区西尾久2-2-5",
    "location": {
      "lat": 35.7489929,
      "lng": 139.765228
    }
  },
  {
    "season": 3,
    "episode": 11,
    "title": "新潟県十日町市 ドライブインの牛肉の煮込みと五目釜めし",
    "restaurant": "峠の茶屋　蔵",
    "matome": "http://blog.livedoor.jp/kuimonnew/archives/32238174.html",
    "access": "",
    "phoneNumber": "025-597-3390",
    "address": "新潟県十日町市儀明217-1",
    "location": {
      "lat": 37.1333656,
      "lng": 138.562347
    }
  },
  {
    "season": 3,
    "episode": 12,
    "title": "品川区大井町いわしのユッケとにぎり寿司",
    "restaurant": "だるまや",
    "matome": "http://blog.livedoor.jp/kuimonnew/archives/32490207.html",
    "access": "大井町駅　徒歩5分",
    "phoneNumber": "03-3450-8858",
    "address": "東京都品川区南品川6-11-28",
    "location": {
      "lat": 35.6094246,
      "lng": 139.7357
    }
  },
  {
    "season": 4,
    "episode": 1,
    "title": "東京都清瀬市のもやしと肉のピリ辛イタメ",
    "restaurant": "みゆき食堂",
    "matome": "http://www.gurum.biz/articles/27949.html",
    "access": "清瀬駅　徒歩3分",
    "phoneNumber": "042-491-4006",
    "address": "東京都清瀬市松山1-9−18",
    "location": {
      "lat": 35.7712326,
      "lng": 139.519363
    }
  },
  {
    "season": 4,
    "episode": 2,
    "title": "中央区銀座の韓国風天ぷらと参鶏湯ラーメン",
    "restaurant": "なじみ亭",
    "matome": "http://www.gurum.biz/articles/28259.html",
    "access": "新橋駅　徒歩5分",
    "phoneNumber": "03-3571-3250",
    "address": "東京都中央区銀座8-10",
    "location": {
      "lat": 35.66771,
      "lng": 139.7621
    }
  },
  {
    "season": 4,
    "episode": 3,
    "title": "神奈川県足柄下郡箱根町のステーキ丼",
    "restaurant": "いろり家",
    "matome": "http://www.gurum.biz/articles/28546.html",
    "access": "",
    "phoneNumber": "0460-82-3831",
    "address": "神奈川県足柄下郡箱根町宮ノ下296",
    "location": {
      "lat": 35.2431221,
      "lng": 139.057983
    }
  },
  {
    "season": 4,
    "episode": 4,
    "title": "東京都八王子市小宮町のヒレカルビとロースすき焼き風",
    "restaurant": "大幸園",
    "matome": "http://www.gurum.biz/articles/28863.html",
    "access": "小宮駅　徒歩10分",
    "phoneNumber": "042-642-1129",
    "address": "東京都八王子市小宮町863-3",
    "location": {
      "lat": 35.6874275,
      "lng": 139.3729
    }
  },
  {
    "season": 4,
    "episode": 5,
    "title": "愛知県知多郡日間賀島のしらすの天ぷらとたこめし",
    "restaurant": "乙姫",
    "matome": "http://www.gurum.biz/articles/29156.html",
    "access": "",
    "phoneNumber": "",
    "address": "愛知県知多郡南知多町日間賀島西浜12",
    "location": {
      "lat": 34.70318,
      "lng": 136.997742
    }
  },
  {
    "season": 4,
    "episode": 6,
    "title": "東京都江東区木場のチーズクルチャとラムミントカレー",
    "restaurant": "カマルプール",
    "matome": "http://www.gurum.biz/articles/29484.html",
    "access": "木場駅　徒歩5分",
    "phoneNumber": "03-5633-5966",
    "address": "東京都江東区東陽3-20-9 鈴木ビル１F",
    "location": {
      "lat": 35.66893,
      "lng": 139.810852
    }
  },
  {
    "season": 4,
    "episode": 7,
    "title": "台東区鳥越の明太クリームパスタとかつサンド",
    "restaurant": "居酒屋 まめぞ",
    "matome": "http://www.gurum.biz/articles/29798.html",
    "access": "浅草橋駅　徒歩7分",
    "phoneNumber": "03-5829-9877",
    "address": "東京都台東区鳥越1-1-5",
    "location": {
      "lat": 35.70231,
      "lng": 139.783737
    }
  },
  {
    "season": 4,
    "episode": 8,
    "title": "杉並区阿佐ヶ谷オックステールスープとアサイーボウル",
    "restaurant": "YO-HO's cafe Lanai",
    "matome": "http://www.gurum.biz/articles/30120.html",
    "access": "阿佐ヶ谷駅　徒歩3分",
    "phoneNumber": "03-6383-1298",
    "address": "東京都杉並区阿佐谷南2-0-4 NHビル2 1F",
    "location": {
      "lat": 35.70488,
      "lng": 139.639145
    }
  },
  {
    "season": 4,
    "episode": 9,
    "title": "渋谷区神宮前の毛沢東スペアリブと黒チャーハン",
    "restaurant": "シャンウェイ",
    "matome": "http://www.gurum.biz/articles/30444.html",
    "access": "外苑前駅　徒歩5分",
    "phoneNumber": "03-3475-3425",
    "address": "東京都渋谷区神宮前3-7-5 大鉄ビル 2F",
    "location": {
      "lat": 35.6707878,
      "lng": 139.713226
    }
  },
  {
    "season": 4,
    "episode": 10,
    "title": "東京都江東区枝川のハムエッグ定食とカツ皿",
    "restaurant": "アトム",
    "matome": "http://www.gurum.biz/articles/30769.html",
    "access": "潮見駅　徒歩15分",
    "phoneNumber": "03-3646-7357",
    "address": "東京都江東区枝川3-8-8",
    "location": {
      "lat": 35.65789,
      "lng": 139.810532
    }
  },
  {
    "season": 4,
    "episode": 11,
    "title": "大田区蒲田の海老の生春巻きととりおこわ",
    "restaurant": "THI THI",
    "matome": "http://www.gurum.biz/articles/31074.html",
    "access": "蒲田駅　徒歩5分",
    "phoneNumber": "03-3731-1549",
    "address": "東京都大田区蒲田5-26-6 B1",
    "location": {
      "lat": 35.56247,
      "lng": 139.7202
    }
  },
  {
    "season": 4,
    "episode": 12,
    "title": "渋谷区恵比寿の海老しんじょうと焼きおにぎり",
    "restaurant": "さいき",
    "matome": "http://www.gurum.biz/articles/31388.html",
    "access": "恵比寿駅　徒歩2分",
    "phoneNumber": "03-3461-3367",
    "address": "東京都渋谷区恵比寿西1-7-12",
    "location": {
      "lat": 35.6479073,
      "lng": 139.708481
    }
  },
  {
    "season": 4,
    "episode": 13,
    "title": "福岡県福岡市博多区中洲の鯖ごまと若どりスープ炊き",
    "restaurant": "博多の店",
    "matome": "http://mujin.ldblog.jp/archives/40266765.html",
    "access": "",
    "phoneNumber": "",
    "address": "",
    "location": {
      "lat": 33.592502,
      "lng": 130.406396
    }
  },
  {
    "season": 5,
    "episode": 1,
    "title": "神奈川県川崎市稲田堤のガーリックハラミとサムギョプサル",
    "restaurant": "炭火焼肉　寿苑",
    "matome": "http://mujin.ldblog.jp/archives/46456730.html",
    "access": "JR稲田堤駅　徒歩3分",
    "phoneNumber": "044-945-2932",
    "address": "神奈川県川崎市多摩区菅1-3-11",
    "location": {
      "lat": 35.6326536,
      "lng": 139.53519830000005
    }
  },
  {
    "season": 5,
    "episode": 2,
    "title": "江東区清澄白河のポパイベーコンとサンマクンセイ刺",
    "restaurant": "居酒屋だるま",
    "matome": "http://mujin.ldblog.jp/archives/46531965.html",
    "access": "清澄白河駅　徒歩5分",
    "phoneNumber": "050-5872-6370",
    "address": "東京都江東区三好2-17-9",
    "location": {
      "lat": 35.6810359,
      "lng": 139.80349179999996
    }
  },
  {
    "season": 5,
    "episode": 3,
    "title": "杉並区のラム肉のハンバーグとクスクス",
    "restaurant": "モロッコレストラン tamtamu",
    "matome": "http://mujin.ldblog.jp/archives/46605141.html",
    "access": "西荻窪駅南口　徒歩5分",
    "phoneNumber": "050-5265-0446",
    "address": "東京都杉並区松庵3-18-15",
    "location": {
      "lat": 35.7034062,
      "lng": 139.59486100000004
    }
  },
  {
    "season": 5,
    "episode": 4,
    "title": "台湾宜蘭県羅東の三星葱の肉炒めと豚肉の紅麹揚げ",
    "restaurant": "海鮮熱炒100元",
    "matome": "http://mujin.ldblog.jp/archives/46679013.html",
    "access": "羅東",
    "phoneNumber": "",
    "address": "",
    "location": {
      "lat": 24.675606,
      "lng": 121.770834
    }
  },
  {
    "season": 5,
    "episode": 5,
    "title": "台湾台北市永楽市場の鶏肉飯と乾麺",
    "restaurant": "永楽小乞、原味肉飯魯肉飯",
    "matome": "http://mujin.ldblog.jp/archives/46754852.html",
    "access": "迪化街",
    "phoneNumber": "",
    "address": "",
    "location": {
      "lat": 25.068665,
      "lng": 121.510974
    }
  },
  {
    "season": 5,
    "episode": 6,
    "title": "東京都目黒区大岡山の魚定食となめろう冷茶漬け",
    "restaurant": "九絵",
    "matome": "http://mujin.ldblog.jp/archives/46830379.html",
    "access": "東急目黒線/大井町線大岡山駅　徒歩1～2分",
    "phoneNumber": "03-5731-5230",
    "address": "東京都目黒区大岡山2-2-1",
    "location": {
      "lat": 35.608047,
      "lng": 139.684598
    }
  },
  {
    "season": 5,
    "episode": 7,
    "title": "東京都世田谷区千歳船橋のラムの肩ロースとラムチョップ",
    "restaurant": "ジンギスバルまーさん",
    "matome": "http://mujin.ldblog.jp/archives/46901002.html",
    "access": "小田急小田原線 千歳船橋駅 徒歩3分",
    "phoneNumber": "03-5450-4030",
    "address": "東京都目黒区大岡山2-2-1",
    "location": {
      "lat": 35.645464,
      "lng": 139.622997
    }
  },
  {
    "season": 5,
    "episode": 8,
    "title": "東京都渋谷区代々木上原のエマダツィとパクシャパ",
    "restaurant": "ガテモタブン",
    "matome": "http://mujin.ldblog.jp/archives/46967735.html",
    "access": "小田急小田原線 代々木上原駅東口 徒歩2分",
    "phoneNumber": "03-3466-9590",
    "address": "東京都渋谷区上原1-22-5",
    "location": {
      "lat": 35.668476,
      "lng": 139.682527
    }
  },
  {
    "season": 5,
    "episode": 9,
    "title": "千葉県いすみ市大原のブタ肉塩焼きライスとミックスフライ",
    "restaurant": "源氏食堂",
    "matome": "http://mujin.ldblog.jp/archives/47038213.html",
    "access": "ＪＲ外房線大原（千葉県）駅 徒歩2分",
    "phoneNumber": "0470-62-1048",
    "address": "千葉県いすみ市大原8701-2",
    "location": {
      "lat": 35.2499,
      "lng": 140.390661
    }
  },
  {
    "season": 5,
    "episode": 10,
    "title": "東京都江東区亀戸の純レバ丼",
    "restaurant": "菜苑",
    "matome": "http://mujin.ldblog.jp/archives/47111301.html",
    "access": "東京メトロ半蔵門線錦糸町駅4番口 徒歩10分",
    "phoneNumber": "03-3637-9529",
    "address": "東京都江東区亀戸3-1-8",
    "location": {
      "lat": 35.701617,
      "lng": 139.819807
    }
  },
  {
    "season": 5,
    "episode": 11,
    "title": "埼玉県越谷市せんげん台のカキのムニエルとアメリカンソースのオムライス",
    "restaurant": "厨Sawa",
    "matome": "http://mujin.ldblog.jp/archives/47186765.html",
    "access": "東武伊勢崎線せんげん台駅西口 徒歩7分",
    "phoneNumber": "048-978-3144",
    "address": "埼玉県越谷市千間台西1-23-16",
    "location": {
      "lat": 35.937626,
      "lng": 139.76982
    }
  },
  {
    "season": 5,
    "episode": 12,
    "title": "東京都豊島区西巣鴨の1人すき焼き",
    "restaurant": "しゃぶ辰",
    "matome": "http://mujin.ldblog.jp/archives/47259072.html",
    "access": "都営三田線西巣鴨駅A2口 徒歩1分",
    "phoneNumber": "03-3910-1020",
    "address": "東京都豊島区西巣鴨4-13-15",
    "location": {
      "lat": 35.74418,
      "lng": 139.728698
    }
  },
  {
    "season": 5,
    "episode": 13,
    "title": "北海道旭川市の新子やき と かにくりーむコロッケ（前編）",
    "restaurant": "独酌 三四郎",
    "matome": "http://mujin.ldblog.jp/archives/47398222.html",
    "access": "連絡バス（旭川空港-旭川）旭川駅 徒歩9分",
    "phoneNumber": "0166-22-6751",
    "address": "北海道旭川市二条通5-左7",
    "location": {
      "lat": 43.76818,
      "lng": 142.356412
    }
  },
  {
    "season": 5,
    "episode": 13,
    "title": "北海道旭川市の新子やき と かにくりーむコロッケ（後編）",
    "restaurant": "自由軒",
    "matome": "http://mujin.ldblog.jp/archives/47407216.html",
    "access": "JR旭川駅 徒歩7分",
    "phoneNumber": "0166-23-8686",
    "address": "北海道旭川市5条8丁目左2",
    "location": {
      "lat": 43.767735,
      "lng": 142.361033
    }
  },
  {
    "season": 5,
    "episode": 14,
    "title": "宮城県仙台市の牛たん定食と三陸女川町の海鮮五色丼（上）",
    "restaurant": "萃萃",
    "matome": "http://mujin.ldblog.jp/archives/47407216.html",
    "access": "JR仙石線「宮城野原」駅2番出口より徒歩14分",
    "phoneNumber": "022-231-4174",
    "address": "宮城県仙台市宮城野区萩野町2-12-1",
    "location": {
      "lat": 38.255615,
      "lng": 140.914002
    }
  },
  {
    "season": 5,
    "episode": 14,
    "title": "宮城県仙台市の牛たん定食と三陸女川町の海鮮五色丼（中）",
    "restaurant": "活魚ニューこのり",
    "matome": "http://mujin.ldblog.jp/archives/49232554.html",
    "access": "ＪＲ女川駅からタクシーで5分",
    "phoneNumber": "050-5570-1867",
    "address": "宮城県牡鹿郡女川町小乗浜字小乗87-2",
    "location": {
      "lat": 38.434871,
      "lng": 141.451563
    }
  },
  {
    "season": 5,
    "episode": 14,
    "title": "宮城県仙台市の牛たん定食と三陸女川町の海鮮五色丼（下）",
    "restaurant": "食堂きかく",
    "matome": "http://mujin.ldblog.jp/archives/49234595.html",
    "access": "石巻市街から車で30分ぐらい",
    "phoneNumber": "0225-62-3381",
    "address": "宮城県石巻市相野谷字飯野川町171",
    "location": {
      "lat": 38.514535,
      "lng": 141.317893
    }
  },
  {
    "season": 5,
    "episode": 15,
    "title": "東京都中野のレバにら炒めと千葉県津田沼のリブステーキ",
    "restaurant": "蔡菜食堂",
    "matome": "",
    "access": "JR中野駅より徒歩3分",
    "phoneNumber": "03-5385-6558",
    "address": "東京都中野区中野3-35-2",
    "location": {
      "lat": 35.704671,
      "lng": 139.664466
    }
  },
  {
    "season": 5,
    "episode": 15,
    "title": "東京都中野のレバにら炒めと千葉県津田沼のリブステーキ",
    "restaurant": "テキサス津田沼",
    "matome": "",
    "access": "京成津田沼駅より徒歩5分",
    "phoneNumber": "047-477-9917",
    "address": "千葉県習志野市津田沼2-6-34",
    "location": {
      "lat": 35.685915,
      "lng": 140.021973
    }
  },
  {
    "season": 6,
    "episode": 1,
    "title": "大阪府美章園のお好み焼き定食と平野の串かつ",
    "restaurant": "甘辛や",
    "matome": "",
    "access": "JR美章園駅より徒歩5分",
    "phoneNumber": "06-6629-1470",
    "address": "大阪府大阪市阿倍野区美章園3-2-4",
    "location": {
      "lat": 34.6382,
      "lng": 135.522429
    }
  },
  {
    "season": 6,
    "episode": 1,
    "title": "大阪府美章園のお好み焼き定食と平野の串かつ",
    "restaurant": "串かつ・どて焼 武田",
    "matome": "",
    "access": "JR平野駅より徒歩10分",
    "phoneNumber": "090-3659-5616",
    "address": "大阪府大阪市平野区平野本町1-5",
    "location": {
      "lat": 34.625049,
      "lng": 135.551652
    }
  },
  {
    "season": 6,
    "episode": 2,
    "title": "東京都新宿区淀橋市場の豚バラ生姜焼定食",
    "restaurant": "伊勢屋食堂",
    "matome": "",
    "access": "JR大久保駅より徒歩5分",
    "phoneNumber": "03-3364-0456",
    "address": "東京都新宿区北新宿4-2-1",
    "location": {
      "lat": 35.705583,
      "lng": 139.693597
    }
  },
  {
    "season": 6,
    "episode": 3,
    "title": "東京都目黒区三田のチキンと野菜の薬膳スープカレー",
    "restaurant": "シャナイア",
    "matome": "",
    "access": "JR恵比寿駅、目黒駅より徒歩10分",
    "phoneNumber": "03-3442-3962",
    "address": "東京都目黒区三田1-5-5",
    "location": {
      "lat": 35.639703,
      "lng": 139.714328
    }
  },
  {
    "season": 6,
    "episode": 4,
    "title": "東京都東大和市の上タンシオとカイノミ",
    "restaurant": "翠苑",
    "matome": "",
    "access": "西武拝島線東大和市駅より徒歩12分",
    "phoneNumber": "042-565-5296",
    "address": "東京都東大和市南街2-1-7",
    "location": {
      "lat": 35.741722,
      "lng": 139.430626
    }
  },
  {
    "season": 6,
    "episode": 5,
    "title": "東京都世田谷区太子堂の回転寿司",
    "restaurant": "すし台所家 三軒茶屋店",
    "matome": "",
    "access": "地下鉄三軒茶屋駅より徒歩1分",
    "phoneNumber": "03-3424-1147",
    "address": "東京都世田谷区太子堂4-22-12",
    "location": {
      "lat": 35.644156,
      "lng": 139.670279
    }
  },
  {
    "season": 6,
    "episode": 6,
    "title": "東京都新宿区高田馬場のシャン風豚高菜漬け炒めと牛スープそば",
    "restaurant": "ノング・インレイ",
    "matome": "",
    "access": "JR高田馬場駅より徒歩1分",
    "phoneNumber": "03-5273-5774",
    "address": "東京都新宿区高田馬場2-19-7",
    "location": {
      "lat": 35.713891,
      "lng": 139.70446
    }
  },
  {
    "season": 6,
    "episode": 7,
    "title": "東京都渋谷区道玄坂の皿うどんと春巻き",
    "restaurant": "長崎飯店 渋谷店",
    "matome": "",
    "access": "JR渋谷駅より徒歩3分",
    "phoneNumber": "03-3464-0528",
    "address": "東京都渋谷区道玄坂2-10-12",
    "location": {
      "lat": 35.658686,
      "lng": 139.697746
    }
  },
  {
    "season": 6,
    "episode": 8,
    "title": "東京都台東区御徒町のラム肉長葱炒めとスペアリブ",
    "restaurant": "羊香味坊",
    "matome": "",
    "access": "JR御徒町駅より徒歩3分",
    "phoneNumber": "03-6803-0168",
    "address": "東京都台東区上野3-12-6",
    "location": {
      "lat": 35.705538,
      "lng": 139.773627
    }
  },
  {
    "season": 6,
    "episode": 9,
    "title": "東京都品川区旗の台のサルスエラとイカ墨パエリア",
    "restaurant": "スペイン食堂石井",
    "matome": "",
    "access": "東急線旗の台駅より徒歩5分",
    "phoneNumber": "03-3784-733",
    "address": "東京都品川区旗の台2-1-31",
    "location": {
      "lat": 35.608187,
      "lng": 139.704797
    }
  },
  {
    "season": 6,
    "episode": 10,
    "title": "千葉県富津市金谷のアジフライ定食",
    "restaurant": "漁師めし はまべ",
    "matome": "",
    "access": "浜金谷駅から徒歩5分",
    "phoneNumber": "0439-69-2090",
    "address": "千葉県富津市金谷3971",
    "location": {
      "lat": 35.164304,
      "lng": 139.822954
    }
  },
  {
    "season": 6,
    "episode": 11,
    "title": "東京都文京区茗荷谷の冷やしタンタン麺と回鍋肉",
    "restaurant": "豊栄",
    "matome": "",
    "access": "地下鉄茗荷谷駅より徒歩8分",
    "phoneNumber": "050-5593-4692",
    "address": "東京都文京区小石川5-38-14",
    "location": {
      "lat": 35.71815,
      "lng": 139.743273
    }
  },
  {
    "season": 6,
    "episode": 12,
    "title": "東京都品川区五反田揚げトウモロコシと牛ご飯",
    "restaurant": "食堂とだか",
    "matome": "",
    "access": "JR五反田駅より徒歩2分",
    "phoneNumber": "03-6420-3734",
    "address": "東京都品川区西五反田1-9-3",
    "location": {
      "lat": 35.624874,
      "lng": 139.724281
    }
  },
  {
    "season": 6,
    "episode": 13,
    "title": "愛媛県松山市の鯛どんぶりと広島県広島市の焼肉とラーメン",
    "restaurant": "松下製麺所",
    "matome": "",
    "access": "JR栗林公園北口駅より徒歩5分",
    "phoneNumber": "087-831-6279",
    "address": "香川県高松市中野町2-2",
    "location": {
      "lat": 34.335077,
      "lng": 134.044788
    }
  },
  {
    "season": 6,
    "episode": 13,
    "title": "愛媛県松山市の鯛どんぶりと広島県広島市の焼肉とラーメン",
    "restaurant": "さかな工房 丸万",
    "matome": "",
    "access": "伊予鉄道いよ立花駅より徒歩4分",
    "phoneNumber": "089-921-7242",
    "address": "愛媛県松山市祇園町3-21",
    "location": {
      "lat": 33.830039,
      "lng": 132.773386
    }
  },
  {
    "season": 6,
    "episode": 13,
    "title": "愛媛県松山市の鯛どんぶりと広島県広島市の焼肉とラーメン",
    "restaurant": "みっちゃん",
    "matome": "",
    "access": "広島電鉄白島駅より徒歩10分",
    "phoneNumber": "082-223-3329",
    "address": "広島県広島市東区牛田南1-7-1",
    "location": {
      "lat": 34.407226,
      "lng": 132.470738
    }
  },
  {
    "season": 6,
    "episode": 13,
    "title": "愛媛県松山市の鯛どんぶりと広島県広島市の焼肉とラーメン",
    "restaurant": "多津美",
    "matome": "",
    "access": "JR成田駅より徒歩12分",
    "phoneNumber": "0476-22-0139",
    "address": "千葉県成田市本町345",
    "location": {
      "lat": 35.78434,
      "lng": 140.318467
    }
  },
  {
    "season": 7,
    "episode": 1,
    "title": "埼玉県上尾市本町の肩ロースカツ定食",
    "restaurant": "キセキ食堂",
    "matome": "",
    "access": "JR上尾駅より徒歩10分",
    "phoneNumber": "070-3529-8553",
    "address": "埼玉県上尾市本町3-11-13",
    "location": {
      "lat": 35.979005,
      "lng": 139.594166
    }
  },
  {
    "season": 7,
    "episode": 2,
    "title": "東京都世田谷区経堂の一人バイキング",
    "restaurant": "マッシーナメッシーナ",
    "matome": "",
    "access": "小田急線経堂駅より徒歩8分",
    "phoneNumber": "03-3429-2615",
    "address": "東京都世田谷区宮坂1-9-5",
    "location": {
      "lat": 35.64655,
      "lng": 139.638357
    }
  },
  {
    "season": 7,
    "episode": 3,
    "title": "東京都港区南麻布のチョリソのケソフンディードと鶏肉のピピアンベルデ",
    "restaurant": "サルシータ",
    "matome": "",
    "access": "地下鉄広尾駅より徒歩2分",
    "phoneNumber": "03-3280-1145",
    "address": "東京都港区南麻布4-5-65",
    "location": {
      "lat": 35.650946,
      "lng": 139.723771
    }
  },
  {
    "season": 7,
    "episode": 4,
    "title": "群馬県下仁田のタンメンと豚すき焼き",
    "restaurant": "コロムビア",
    "matome": "",
    "access": "上信電鉄下仁田駅より徒歩3分",
    "phoneNumber": "0274-82-2594",
    "address": "群馬県甘楽郡下仁田町下仁田362",
    "location": {
      "lat": 35.78434,
      "lng": 140.318467
    }
  },
  {
    "season": 7,
    "episode": 5,
    "title": "群馬県下仁田のタンメンと豚すき焼き",
    "restaurant": "一番",
    "matome": "",
    "access": "上信電鉄下仁田駅より徒歩3分",
    "phoneNumber": "0274-82-2594",
    "address": "群馬県甘楽郡下仁田町下仁田362",
    "location": {
      "lat": 36.210898,
      "lng": 138.784051
    }
  },
  {
    "season": 7,
    "episode": 6,
    "title": "東京都荒川区三河島の緑と赤の麻婆豆腐",
    "restaurant": "眞実一路",
    "matome": "",
    "access": "JR三河島駅より徒歩2分",
    "phoneNumber": "03-6806-5232",
    "address": "東京都荒川区西日暮里1-4-12",
    "location": {
      "lat": 35.734197,
      "lng": 139.778064
    }
  },
  {
    "season": 7,
    "episode": 7,
    "title": "千葉県浦安市の真っ黒な銀だらの煮付定食",
    "restaurant": "羅甸 ",
    "matome": "",
    "access": "地下鉄浦安駅より徒歩10分",
    "phoneNumber": "047-351-1855",
    "address": "千葉県浦安市北栄4-16-5",
    "location": {
      "lat": 35.662472,
      "lng": 139.901595
    }
  },
  {
    "season": 7,
    "episode": 8,
    "title": "東京都墨田区東向島の納豆のピザと辛いパスタ",
    "restaurant": "カトリカ",
    "matome": "",
    "access": "東武線東向島駅より徒歩6分",
    "phoneNumber": "03-3618-6747",
    "address": "東京都墨田区東向島5丁目29-6",
    "location": {
      "lat": 35.728093,
      "lng": 139.821828
    }
  },
  {
    "season": 7,
    "episode": 9,
    "title": "東京都中野区百軒横丁のチキン南蛮と地鶏もも串",
    "restaurant": "泪橋",
    "matome": "",
    "access": "JR中野駅より徒歩5分",
    "phoneNumber": "03-6383-2900",
    "address": "東京都中野区中野5-53-10",
    "location": {
      "lat": 35.709101,
      "lng": 139.666735
    }
  },
  {
    "season": 7,
    "episode": 10,
    "title": "韓国チョンジュ市の納豆チゲとセルフビビンパ",
    "restaurant": "토방（トバン）",
    "matome": "",
    "access": "韓国チョンジュ市",
    "phoneNumber": "63-226-1080",
    "address": "全羅北道全州市完山区平和洞1街727-1",
    "location": {
      "lat": 35.79478,
      "lng": 127.134475
    }
  },
  {
    "season": 7,
    "episode": 11,
    "title": "韓国ソウル特別市の骨付き豚カルビとおかずの群れ",
    "restaurant": "종점숯불갈비（チョンチョムスップルカルビ）",
    "matome": "",
    "access": "韓国ソウル特別市",
    "phoneNumber": "2-749-6887",
    "address": "ソウル特別市龍山区普光洞70-19",
    "location": {
      "lat": 37.526362,
      "lng": 127.001948
    }
  },
  {
    "season": 7,
    "episode": 12,
    "title": "千葉県千葉市の特製ニンニクスープと生鮭のバター焼き",
    "restaurant": "味のレストランえびすや　幸町店",
    "matome": "",
    "access": "京成線西登戸駅より徒歩5分",
    "phoneNumber": "043-244-9989",
    "address": "千葉県千葉市美浜区幸町1-18-1",
    "location": {
      "lat": 35.614601,
      "lng": 140.101088
    }
  },
  {
    "season": 7,
    "episode": 13,
    "title": "東京都中央区八丁堀のニラ玉ライスとエビチリ",
    "restaurant": "中華シブヤ",
    "matome": "",
    "access": "地下鉄宝町駅より徒歩2分",
    "phoneNumber": "03-3551-9021",
    "address": "東京都中央区八丁堀3丁目2-4",
    "location": {
      "lat": 35.675061,
      "lng": 139.77342
    }
  }




]